nome;latitude;longitude
Escola Municipal Boa Viagem;-8.1256;-34.9011
Escola Municipal Casa Forte;-8.0389;-34.9152
Escola Municipal Varzea;-8.0471;-34.9431
Escola Municipal Centro;-8.0631;-34.8711
Escola Municipal Derby;-8.0575;-34.8978
Creche Municipal Recife;-8.0500;-34.8800
Escola Tecnica;-8.0700;-34.9000
